$GPGGA,093217.006,5112.000000,N,00432.000000,E,1,2,0,64,M,0,M,,*78
$GPGLL,5112.000000,N,00432.000000,E,093217.006,A,A*53
$GPVTG,0,T,0,M,1.08,N,2.00111172873819,K,A*21
$GPRMC,093217.006,A,5112.000000,N,00432.000000,E,1.08,0,030323,0,E,A*37
$GPGSA,A,3,1,2,,,,,,,,,,,0,0,0*2F
$GPGSV,1,1,2,1,32,22,0,2,30,10,0*4B

$GPGGA,093218.240,5112.016667,N,00432.016667,E,1,2,0,64,M,0,M,,*77
$GPGLL,5112.016667,N,00432.016667,E,093218.240,A,A*5C
$GPVTG,0,T,0,M,1.08,N,2.00111172873819,K,A*21
$GPRMC,093218.240,A,5112.016667,N,00432.016667,E,1.08,0,030323,0,E,A*38
$GPGSA,A,3,1,2,,,,,,,,,,,0,0,0*2F
$GPGSV,1,1,2,1,32,23,0,2,30,11,0*4B

$GPGGA,093219.426,5112.033333,N,00432.033333,E,1,2,0,64,M,0,M,,*70
$GPGLL,5112.033333,N,00432.033333,E,093219.426,A,A*5B
$GPVTG,0,T,0,M,1.08,N,2.00111172873819,K,A*21
$GPRMC,093219.426,A,5112.033333,N,00432.033333,E,1.08,0,030323,0,E,A*3F
$GPGSA,A,3,1,2,,,,,,,,,,,0,0,0*2F
$GPGSV,1,1,2,1,32,24,0,2,30,12,0*4F

$GPGGA,093220.627,5112.050000,N,00432.050000,E,1,2,0,64,M,0,M,,*79
$GPGLL,5112.050000,N,00432.050000,E,093220.627,A,A*52
$GPVTG,0,T,0,M,1.08,N,2.00111172873819,K,A*21
$GPRMC,093220.627,A,5112.050000,N,00432.050000,E,1.08,0,030323,0,E,A*36
$GPGSA,A,3,1,2,,,,,,,,,,,0,0,0*2F
$GPGSV,1,1,2,1,32,25,0,2,30,13,0*4F

$GPGGA,093221.840,5112.066667,N,00432.066667,E,1,2,0,64,M,0,M,,*77
$GPGLL,5112.066667,N,00432.066667,E,093221.840,A,A*5C
$GPVTG,0,T,0,M,1.08,N,2.00111172873819,K,A*21
$GPRMC,093221.840,A,5112.066667,N,00432.066667,E,1.08,0,030323,0,E,A*38
$GPGSA,A,3,1,2,,,,,,,,,,,0,0,0*2F
$GPGSV,1,1,2,1,32,26,0,2,30,14,0*4B

$GPGGA,093223.072,5112.083333,N,00432.083333,E,1,2,0,64,M,0,M,,*7C
$GPGLL,5112.083333,N,00432.083333,E,093223.072,A,A*57
$GPVTG,0,T,0,M,1.08,N,2.00111172873819,K,A*21
$GPRMC,093223.072,A,5112.083333,N,00432.083333,E,1.08,0,030323,0,E,A*33
$GPGSA,A,3,1,2,,,,,,,,,,,0,0,0*2F
$GPGSV,1,1,2,1,32,27,0,2,30,15,0*4B

$GPGGA,093224.258,5112.100000,N,00432.100000,E,1,2,0,64,M,0,M,,*71
$GPGLL,5112.100000,N,00432.100000,E,093224.258,A,A*5A
$GPVTG,0,T,0,M,1.08,N,2.00111172873819,K,A*21
$GPRMC,093224.258,A,5112.100000,N,00432.100000,E,1.08,0,030323,0,E,A*3E
$GPGSA,A,3,1,2,,,,,,,,,,,0,0,0*2F
$GPGSV,1,1,2,1,32,28,0,2,30,16,0*47

$GPGGA,093225.461,5112.116667,N,00432.116667,E,1,2,0,64,M,0,M,,*7C
$GPGLL,5112.116667,N,00432.116667,E,093225.461,A,A*57
$GPVTG,0,T,0,M,1.08,N,2.00111172873819,K,A*21
$GPRMC,093225.461,A,5112.116667,N,00432.116667,E,1.08,0,030323,0,E,A*33
$GPGSA,A,3,1,2,,,,,,,,,,,0,0,0*2F
$GPGSV,1,1,2,1,32,29,0,2,30,17,0*47

$GPGGA,093226.650,5112.133333,N,00432.133333,E,1,2,0,64,M,0,M,,*7F
$GPGLL,5112.133333,N,00432.133333,E,093226.650,A,A*54
$GPVTG,0,T,0,M,1.08,N,2.00111172873819,K,A*21
$GPRMC,093226.650,A,5112.133333,N,00432.133333,E,1.08,0,030323,0,E,A*30
$GPGSA,A,3,1,2,,,,,,,,,,,0,0,0*2F
$GPGSV,1,1,2,1,32,30,0,2,30,18,0*40

$GPGGA,093227.853,5112.150000,N,00432.150000,E,1,2,0,64,M,0,M,,*73
$GPGLL,5112.150000,N,00432.150000,E,093227.853,A,A*58
$GPVTG,0,T,0,M,1.08,N,2.00111172873819,K,A*21
$GPRMC,093227.853,A,5112.150000,N,00432.150000,E,1.08,0,030323,0,E,A*3C
$GPGSA,A,3,1,2,,,,,,,,,,,0,0,0*2F
$GPGSV,1,1,2,1,32,31,0,2,30,19,0*40

$GPGGA,093229.057,5112.166667,N,00432.166667,E,1,2,0,64,M,0,M,,*71
$GPGLL,5112.166667,N,00432.166667,E,093229.057,A,A*5A
$GPVTG,0,T,0,M,1.08,N,2.00111172873819,K,A*21
$GPRMC,093229.057,A,5112.166667,N,00432.166667,E,1.08,0,030323,0,E,A*3E
$GPGSA,A,3,1,2,,,,,,,,,,,0,0,0*2F
$GPGSV,1,1,2,1,32,32,0,2,30,20,0*49

$GPGGA,093230.260,5112.183333,N,00432.183333,E,1,2,0,64,M,0,M,,*7F
$GPGLL,5112.183333,N,00432.183333,E,093230.260,A,A*54
$GPVTG,0,T,0,M,1.08,N,2.00111172873819,K,A*21
$GPRMC,093230.260,A,5112.183333,N,00432.183333,E,1.08,0,030323,0,E,A*30
$GPGSA,A,3,1,2,,,,,,,,,,,0,0,0*2F
$GPGSV,1,1,2,1,32,33,0,2,30,21,0*49

$GPGGA,093231.463,5112.200000,N,00432.200000,E,1,2,0,64,M,0,M,,*7B
$GPGLL,5112.200000,N,00432.200000,E,093231.463,A,A*50
$GPVTG,0,T,0,M,1.08,N,2.00111172873819,K,A*21
$GPRMC,093231.463,A,5112.200000,N,00432.200000,E,1.08,0,030323,0,E,A*34
$GPGSA,A,3,1,2,,,,,,,,,,,0,0,0*2F
$GPGSV,1,1,2,1,32,34,0,2,30,22,0*4D

$GPGGA,093232.666,5112.216667,N,00432.216667,E,1,2,0,64,M,0,M,,*7F
$GPGLL,5112.216667,N,00432.216667,E,093232.666,A,A*54
$GPVTG,0,T,0,M,1.08,N,2.00111172873819,K,A*21
$GPRMC,093232.666,A,5112.216667,N,00432.216667,E,1.08,0,030323,0,E,A*30
$GPGSA,A,3,1,2,,,,,,,,,,,0,0,0*2F
$GPGSV,1,1,2,1,32,35,0,2,30,23,0*4D

$GPGGA,093233.872,5112.233333,N,00432.233333,E,1,2,0,64,M,0,M,,*75
$GPGLL,5112.233333,N,00432.233333,E,093233.872,A,A*5E
$GPVTG,0,T,0,M,1.08,N,2.00111172873819,K,A*21
$GPRMC,093233.872,A,5112.233333,N,00432.233333,E,1.08,0,030323,0,E,A*3A
$GPGSA,A,3,1,2,,,,,,,,,,,0,0,0*2F
$GPGSV,1,1,2,1,32,36,0,2,30,24,0*49

